{"name":"Gemeinschaftszentrum","type":"FeatureCollection"
,"features":[
{"type":"Feature","geometry":{"type":"Point","coordinates":[8.53509680913023,47.3989502404707]},"properties":{"adresse":"Bucheggstrasse 93","name":"GZ Buchegg","ort":"Zürich","plz":"8057","tel":"+41 44 360 80 10","www":"https://gz-zh.ch/gz-buchegg/"}}
,{"type":"Feature","geometry":{"type":"Point","coordinates":[8.48999541974045,47.3959782311542]},"properties":{"adresse":"Grünauring 18","name":"GZ Grünau","ort":"Zürich","plz":"8064","tel":"+41 44 431 86 00","www":"https://gz-zh.ch/gz-gruenau/"}}
,{"type":"Feature","geometry":{"type":"Point","coordinates":[8.49731290267824,47.402234916056]},"properties":{"adresse":"Limmattalstrasse 214","name":"GZ Höngg/Rütihof","ort":null,"plz":"8049","tel":"+41 44 341 70 00","www":"https://gz-zh.ch/gz-hoengg/"}}
,{"type":"Feature","geometry":{"type":"Point","coordinates":[8.53259696777786,47.332129459815]},"properties":{"adresse":"Erligatterweg 53","name":"GZ Wollishofen, Standort Neubühl","ort":"Zürich","plz":"8038","tel":"+41 44 482 66 84","www":"http://www.gz-zh.ch/wollishofen"}}
,{"type":"Feature","geometry":{"type":"Point","coordinates":[8.5109312650962,47.4245518606177]},"properties":{"adresse":"Bodenacker 25","name":"GZ Affoltern","ort":"Zürich","plz":"8046","tel":"+41 43 299 20 10","www":"http://www.gz-zh.ch/affoltern"}}
,{"type":"Feature","geometry":{"type":"Point","coordinates":[8.48614330669557,47.3799481063278]},"properties":{"adresse":"Bachwiesenstrasse 40","name":"GZ Bachwiesen","ort":"Zürich","plz":"8047","tel":"+41 44 436 86 36","www":"https://gz-zh.ch/gz-bachwiesen/"}}
,{"type":"Feature","geometry":{"type":"Point","coordinates":[8.53578973386316,47.3451077434635]},"properties":{"adresse":"Bachstrasse 7","name":"GZ Wollishofen","ort":"Zürich","plz":"8038","tel":"+41 43 243 11 37","www":"https://gz-zh.ch/gz-wollishofen/"}}
,{"type":"Feature","geometry":{"type":"Point","coordinates":[8.5456928143778,47.407763335481]},"properties":{"adresse":"Gubelstrasse 10","name":"GZ Oerlikon","ort":"Zürich","plz":"8050","tel":"+41 44 315 52 42","www":"https://gz-zh.ch/gz-oerlikon/"}}
,{"type":"Feature","geometry":{"type":"Point","coordinates":[8.50391185520542,47.3671745157434]},"properties":{"adresse":"Döltschiweg 130","name":"GZ Heuried","ort":"Zürich","plz":"8055","tel":"+41 43 268 60 80","www":"https://gz-zh.ch/gz-heuried/"}}
,{"type":"Feature","geometry":{"type":"Point","coordinates":[8.59183975382885,47.402706602816]},"properties":{"adresse":"Helen-Keller-Strasse 55","name":"GZ Hirzenbach","ort":"Zürich","plz":"8051","tel":"+41 44 325 60 11","www":"https://gz-zh.ch/gz-hirzenbach/"}}
,{"type":"Feature","geometry":{"type":"Point","coordinates":[8.55617834300567,47.3694601172481]},"properties":{"adresse":"Gemeindestrasse 54","name":"GZ Hottingen","ort":"Zürich","plz":"8032","tel":"+41 44 251 02 29","www":"https://gz-zh.ch/gz-hottingen/"}}
,{"type":"Feature","geometry":{"type":"Point","coordinates":[8.51421227643642,47.3264748291985]},"properties":{"adresse":"Leimbachstrasse 200","name":"GZ Leimbach","ort":"Zürich","plz":"8041","tel":"+41 44 482 57 09","www":"https://gz-zh.ch/gz-leimbach/"}}
,{"type":"Feature","geometry":{"type":"Point","coordinates":[8.47248376958331,47.3885174649742]},"properties":{"adresse":"Salzweg 1","name":"GZ Loogarten","ort":"Zürich","plz":"8048","tel":"+41 44 437 90 20","www":"https://gz-zh.ch/gz-loogarten/"}}
,{"type":"Feature","geometry":{"type":"Point","coordinates":[8.55391120539226,47.359191532216]},"properties":{"adresse":"Seefeldstrasse 93","name":"GZ Riesbach","ort":"Zürich","plz":"8008","tel":"+41 44 387 74 50","www":"https://gz-zh.ch/gz-riesbach/"}}
,{"type":"Feature","geometry":{"type":"Point","coordinates":[8.53610427793083,47.386761332929]},"properties":{"adresse":"Kronenstrasse 12","name":"GZ Schindlergut","ort":"Zürich","plz":"8006","tel":"+41 44 365 24 40","www":"https://gz-zh.ch/gz-schindlergut/"}}
,{"type":"Feature","geometry":{"type":"Point","coordinates":[8.54397387218196,47.424537529936]},"properties":{"adresse":"Hertensteinstrasse 20","name":"GZ Seebach","ort":"Zürich","plz":"8052","tel":"+41 44 307 51 50","www":"https://gz-zh.ch/gz-seebach/"}}
,{"type":"Feature","geometry":{"type":"Point","coordinates":[8.52021987730942,47.393099728717]},"properties":{"adresse":"Breitensteinstrasse 19a","name":"GZ Wipkingen","ort":"Zürich","plz":"8037","tel":"+41 44 276 82 80","www":"https://gz-zh.ch/gz-wipkingen/"}}
,{"type":"Feature","geometry":{"type":"Point","coordinates":[8.59419833890467,47.3599647841959]},"properties":{"adresse":"Witikonerstrasse 405","name":"GZ Witikon","ort":"Zürich","plz":"8053","tel":"+41 44 422 75 61","www":"https://gz-zh.ch/gz-witikon/"}}
]}
